latitude,longitude,label,link
55.01337,-2.33022,Housesteads Roman Fort,https://www.english-heritage.org.uk/visit/places/housesteads-roman-fort-hadrians-wall/
51.81934,-1.92485,Vindolanda - Roman Fort
51.29332,1.33281,Richborough Roman Fort
54.40278,-3.20542,Hardknott Roman Fort
52.582,1.652,Burgh Castle - Roman Fort,https://en.wikipedia.org/wiki/Gariannonum
55.01337000384831,-2.330170636376526,Housesteads Roman Fort
55.02601547159173,-2.1396254086065745,Chesters Roman Fort
54.987708536265075,-1.5321389788175335,Segedunum Roman Fort
55.004375428234546,-1.4310973048793378,Arbeia Roman Fort,https://arbeiaromanfort.org.uk/
55.03494165743155,-2.2219633900647615,Brocolitia Roman Fort 