latitude,longitude,label,link
52.68473223466596, 1.357352739975127,Skull,At the bottom of a marble monument on a wall inside All Saint's Church
55.94965, -3.20505,Skull,_,On a gravestone in St Cuthbert's Church graveyard.
53.18908221999107, -2.886072315427822,Skeleton,On Diana Warburton's tomb (dated 1693) in St John the Baptist Church.
52.71494388104247, 1.3875587444171986,Skull and Crossbones,Tombstone laid on the floor of Belaugh church. The church also has a large collection of apotropaic marks.
58.9812760517195, -2.959455010228947,Hourglass & Skull and Crossbones,https://www.geograph.org.uk/photo/7550277,On the memorial of Elizabeth Cuthbert, inside  St Magnus Cathedral.
56.46138253803463, -2.9731537899497402,Rough hourglass & skull and crossbones,https://www.geograph.org.uk/photo/7466656,On a simple gravestone in the Howff (graveyard).
57.480109946892, -4.228481782188023,Multiple Skulls and crossbones,https://www.geograph.org.uk/photo/7196990,On the impressive Robertson Mausoleum.
57.663768470349794, -4.17120801568447,Skull and crossbones,https://www.geograph.org.uk/photo/7171121,On a very simple graveslab in the kirkyard.
57.5466429319367, -1.8083500062628348,Hourglass & Skull and crossbones,https://www.geograph.org.uk/photo/7114363,On an 18th Century grave-slab in St Fergus old kirkyard.
57.51513877760765, -1.9393820962762842,Hourglass & Skull and crossbones,https://www.geograph.org.uk/photo/6849058,On an 18th Century grave-slab in Longside kirkyard.
57.685950333691075, -2.112690418772123,Skull and crossbones,https://www.geograph.org.uk/photo/6817046,On a table tomb in Pitsligo old kirkyard.
54.0723185174567, -2.289739544943631,Skull,https://www.geograph.org.uk/photo/6015121,On the Richard Frankland memorial inside St Alkelda's church.
57.32619442356189, -2.833447051215168,Hourglass & Skull and crossbones,https://www.geograph.org.uk/photo/5556438, On the Alexander Gordon memorial in Rhynie old kirkyard. Also, don't miss the Picktish stones nearby.
57.245673230277745, -2.8758676590716554,Hourglass & Skull and crossbones,https://www.geograph.org.uk/photo/5536150,On a sandstone slab from 1730.
55.84353527478284, -2.99038206594524,Weathered Skull and crossbones,https://www.geograph.org.uk/photo/5504098,On a very weathered gravestone.
56.36480693518399, -3.4425541606938936,Hourglass & Skull and crossbones,https://www.geograph.org.uk/photo/4030395,On a small gravestone from 1775.
55.94624095393022, -3.1920301151559847,Skull and crossbones,https://www.geograph.org.uk/photo/3506599,Set into the wall of one of the line of Mausoleums.
52.65701337453085, -0.4320885703847825,Skull (wearing a gold crown!),https://www.geograph.org.uk/photo/3135846,On the Staunton Memorial, inside Uffington church.
53.080868391709345, -2.8792376605978123,a (smiley) Skull and crossbones,https://www.geograph.org.uk/photo/3024732,St Chad's Church, Holt.
57.74090723346231, -6.962986057356806,Hourglass & coffin & Skull and crossbones,https://www.geograph.org.uk/photo/2833314,On a slab inside  St Clement's, Rodel.
52.90736594669625, -0.20504261007974833,Skull - with bat-wings!,https://www.geograph.org.uk/photo/2763521,On the Memorial to Mary Long, St Mary and Holy Rood church.
52.63187458443554, 1.3008548851382455,Skull and torso,https://www.atlasobscura.com/places/grave-of-thomas-gooding,Thomas Gooding, buried (standing up) in Norwich Cathedral.
54.88049504179436, -4.210635518648881,Anwoth Old Kirk,https://canmore.org.uk/site/63661/anwoth-old-kirk-churchyard-and-gordon-tomb,Skull & Crossbones and Hourglasses on tombs and gravestones in the yard of this ruined kirk.