latitude,longitude,label,link
-12.0464,-77.0428,Saint Rose of Lima,https://en.wikipedia.org/wiki/Rose_of_Lima,"In Lima, Saint Rose’s life of humility and charity is celebrated as a beacon of hope. Her miracles and compassionate acts have woven her legacy into the cultural fabric of Peru."
-12.046927606985385, -77.0298168694666,Saint Turibius of Mongrovejo,https://en.wikipedia.org/wiki/Turibius_of_Mongrovejo,"In La Paz, legends recount Saint Turibius’s determined mission to spread the Gospel among indigenous peoples. His efforts are remembered as a unifying force in the religious history of Bolivia."
54.327255302938035, -5.721871926912956,Saint Patrick,https://en.wikipedia.org/wiki/Saint_Patrick,"In Harare, the story of Saint Patrick’s healing powers has been passed down through generations. His legendary acts have fortified local faith and brought communities together."
53.759949024484065, -9.65999344775583,Saint Patrick,https://en.wikipedia.org/wiki/Saint_Patrick,"Legend holds that Saint Patrick spent time in isolation on Croagh Patrick, engaging in deep prayer and fasting. This period of reflection solidified his mission to spread Christianity across Ireland."
48.8488, 2.3218,Saint Vincent de Paul,https://en.wikipedia.org/wiki/Saint_Vincent_de_Paul,Vincent de Paul was a French Catholic priest renowned for his compassionate service to the poor, whose life included enduring hardships such as captivity by Barbary pirates and later founding influential charitable organizations and religious communities. His legacy lives on through institutions like the Vincentians, the Daughters of Charity, and the Society of Saint Vincent de Paul, which continue to promote charity and social reform worldwide.

-2.1709,-79.9224,Saint Mariana de Jesús de Paredes,https://en.wikipedia.org/wiki/Mariana_de_Jes%C3%BAs_de_Paredes,"Quito’s steep streets echo with tales of Saint Mariana de Jesús de Paredes and her unwavering faith. Her gentle miracles and pious life continue to be celebrated in Ecuador."
-22.9080,-43.1960,Saint Sebastian,https://en.wikipedia.org/wiki/Saint_Sebastian,"In Rio de Janeiro, Saint Sebastian is venerated for his reputed healing miracles and steadfast protection during times of plague. His enduring legacy as a patron of the afflicted continues to inspire hope and resilience in local communities."
-22.9576,18.4904,Saint Joseph,https://en.wikipedia.org/wiki/Saint_Joseph,"In Windhoek, small congregations recall the miraculous deeds of Saint Joseph. His timeless intercession unites the local faithful and provides strength during hardships."
-25.9692,32.5732,Saint Anthony of Padua,https://en.wikipedia.org/wiki/Saint_Anthony_of_Padua,"In Maputo, residents recount the compassionate deeds of Saint Anthony of Padua during times of need. His revered miracles serve as a cornerstone of local devotion."
-33.4489,-70.6693,Saint Alberto Hurtado,https://en.wikipedia.org/wiki/Alberto_Hurtado,"In Santiago, Chile, Saint Alberto Hurtado’s commitment to social justice is woven into local memory. His acts of kindness and advocacy for the poor have left a profound impact on the nation."
-37.8136,144.9631,Saint Mary MacKillop,https://en.wikipedia.org/wiki/Mary_MacKillop,"In Melbourne, Saint Mary MacKillop’s innovative work in education and charity reshaped Australian society. Her gentle spirit and persistent dedication continue to inspire local communities."
-41.2865,174.7762,Saint Peter Chanel,https://en.wikipedia.org/wiki/Saint_Peter_Chanel,"In Wellington, the legacy of Saint Peter Chanel endures as a symbol of missionary zeal in Oceania. His life and martyrdom have left an indelible mark on the region’s Christian heritage."
-6.2088,106.8456,Saint Francis Xavier,https://en.wikipedia.org/wiki/Saint_Francis_Xavier,"In Jakarta, the historic imprint of Saint Francis Xavier is remembered through the early missions of the Church. His compassionate outreach helped forge ties between local cultures and Christianity."
-8.8383,13.2344,Saint Anthony of Padua,https://en.wikipedia.org/wiki/Saint_Anthony_of_Padua,"In Luanda, the gentle intercession of Saint Anthony of Padua is celebrated in many community rituals. His reputed miracles have long bridged divides and inspired hope throughout Angola."
0.3476,32.5825,Saint Charles Lwanga,https://en.wikipedia.org/wiki/Saint_Charles_Lwanga,"Kampala’s history is indelibly marked by the bravery of Saint Charles Lwanga and his companions. Their sacrifice in the face of persecution has inspired generations of Ugandan believers."
13.7563,100.5018,Saint Peter,https://en.wikipedia.org/wiki/Saint_Peter,"In Bangkok, legends tell of Saint Peter’s quiet miracles during times of hardship. His story of steadfast faith has become woven into the tapestry of the local Christian community."
14.5995,120.9842,Saint Lorenzo Ruiz,https://en.wikipedia.org/wiki/Saint_Lorenzo_Ruiz,"Manila pulses with devotion to Saint Lorenzo Ruiz, whose martyrdom is a poignant symbol of faith under persecution. His inspiring legacy is celebrated every year with community feasts and processions."
15.2993,74.1230,Saint Francis Xavier,https://en.wikipedia.org/wiki/Saint_Francis_Xavier,"In Goa, India, Saint Francis Xavier's zealous missionary work transformed local communities through evangelization and compassionate care. His fervent preaching and reputed miracles established a lasting legacy across Asia."
15.5007,32.5599,Saint George,https://en.wikipedia.org/wiki/Saint_George,"In Khartoum, the local veneration of Saint George is maintained through oral tradition and community celebrations. His mighty acts of bravery continue to inspire devotion in Sudan."
19.4326,-99.1332,Saint Juan Diego,https://en.wikipedia.org/wiki/Saint_Juan_Diego,"Within the bustling heart of Mexico City, the story of Saint Juan Diego and his miraculous encounter continues to inspire devotion. His vision has become a central symbol of indigenous faith and resilience."
2.1896,102.2501,Saint Francis Xavier,https://en.wikipedia.org/wiki/Saint_Francis_Xavier,"In Malacca, enduring stories of Saint Francis Xavier’s miracles have been embraced by local Catholic communities. His intercession is commemorated during annual processions that celebrate intercultural unity."
21.1550,-157.0070,Saint Damien of Molokai,https://en.wikipedia.org/wiki/Saint_Damien_of_Molokai,"On the island of Molokai in Hawaii, Saint Damien devoted his life to caring for those afflicted by leprosy. His compassionate service and self-sacrifice remain a beacon of hope and healing."
23.5859,58.4059,Saint George,https://en.wikipedia.org/wiki/Saint_George,"In Oman, scattered legends recount the miraculous deeds of Saint George. His intercession—despite the dominant cultural traditions—remains a beacon of hope for a small community of believers."
24.7136,46.6753,Saint George,https://en.wikipedia.org/wiki/Saint_George,"In Riyadh, a rare local tradition recounts miraculous events attributed to Saint George. His legendary acts of protection are celebrated by a small but devout community despite the region’s dominant traditions."
24.8607,67.0011,Saint John de Brito,https://en.wikipedia.org/wiki/John_de_Brito,"Karachi’s small but vibrant Christian community remembers Saint John de Brito for his missionary efforts. His reputed miracles and fervent preaching continue to be a source of inspiration."
25.2854,51.5310,Saint Nicholas,https://en.wikipedia.org/wiki/Saint_Nicholas,"In Doha, an uncommon tradition honors Saint Nicholas for his legendary acts of kindness. His story, though seldom told, continues to spark wonder among local faithful."
27.7172,85.3240,Saint Christopher,https://en.wikipedia.org/wiki/Saint_Christopher,"In Kathmandu, tales of Saint Christopher’s protection over travelers have been passed down through generations. His legacy is invoked by those seeking safe passage through the rugged terrain."
30.0444,31.2357,Saint Mark,https://en.wikipedia.org/wiki/Saint_Mark,"In the heart of Coptic Cairo, Saint Mark is venerated as the founder of local Christian tradition. His legacy is etched into the ancient walls of churches and monasteries throughout Egypt."
31.2001,29.9187,Saint Athanasius of Alexandria,https://en.wikipedia.org/wiki/Athanasius_of_Alexandria,"In Alexandria, Saint Athanasius defended orthodox Christian doctrine during turbulent times. His resolute leadership and theological contributions helped shape early Christian thought."
31.7683,35.2137,Saint Stephen,https://en.wikipedia.org/wiki/Saint_Stephen,"Jerusalem’s storied past includes the early martyrdom of Saint Stephen, whose steadfast faith paved the way for future believers. His courageous witness remains a cornerstone of local Christian memory."
31.8239,35.4500,Saint John the Baptist,https://en.wikipedia.org/wiki/John_the_Baptist,"At Qasr al-Yahud on the Jordan River, Saint John the Baptist’s ministry of baptism and call for repentance is commemorated by pilgrims worldwide. His bold witness continues to inspire spiritual renewal and acts as a beacon for those seeking transformation."
31.9038,35.2038,Saint Barbara,https://en.wikipedia.org/wiki/Saint_Barbara,"In the hills around Ramallah, stories of Saint Barbara’s steadfast protection are passed down among families. Her gentle miracles and enduring faith bring hope to local communities."
32.0963,34.895,Saint George,https://en.wikipedia.org/wiki/Saint_George,"In the vicinity of Lydda, Saint George is celebrated for his legendary confrontation with a fearsome dragon. This miraculous victory established him as a symbol of courage and divine protection in the region."
32.8872,13.1913,Saint Catherine of Alexandria,https://en.wikipedia.org/wiki/Saint_Catherine_of_Alexandria,"Tripoli’s ancient traditions recall Saint Catherine’s unwavering faith and miraculous deliverance. Her legend endures as a symbol of courage in the face of hardship."
33.3128,44.3615,Saint George,https://en.wikipedia.org/wiki/Saint_George,"In Baghdad, enduring legends tell of Saint George’s courage in the face of adversity. His miraculous interventions are a source of hope for the local Christian minority."
33.8886,35.4944,Saint Charbel,https://en.wikipedia.org/wiki/Saint_Charbel,"In a small village near Byblos, the story of Saint Charbel’s humble life and miracles endures. His quiet intercession has brought comfort and hope to many in Lebanon."
33.9716,-6.8498,Saint Barbara,https://en.wikipedia.org/wiki/Saint_Barbara,"Casablanca’s small Christian communities whisper tales of Saint Barbara’s protection during past crises. Her legendary intercessions have become a symbol of resilience in Morocco."
34.5553,69.2075,Saint Barbara,https://en.wikipedia.org/wiki/Saint_Barbara,"In Kabul, rare oral traditions recount Saint Barbara’s protective intervention during times of turmoil. Her story, passed down among small communities, symbolizes hope amid adversity."
35.1856,33.3823,Saint Barnabas,https://en.wikipedia.org/wiki/Saint_Barnabas,"Nicosia’s winding alleys hold tales of Saint Barnabas’s missionary zeal and gentle miracles. His enduring legacy is honored by both ancient churches and modern pilgrims in Cyprus."
35.9000,38.3000,Saint Simeon Stylites,https://en.wikipedia.org/wiki/Simeon_Stylites,"In the arid landscapes of Syria, Saint Simeon Stylites is renowned for his extreme asceticism, living atop a pillar for decades. His extraordinary devotion and solitary life continue to inspire pilgrims in their quest for spiritual transcendence."
36.2021,36.1608,Saint Ignatius of Antioch,https://en.wikipedia.org/wiki/Ignatius_of_Antioch,"In Antioch, modern-day Turkey, Saint Ignatius of Antioch emerged as a pivotal early Church Father and martyr whose letters profoundly influenced Christian theology. His steadfast faith in the face of persecution remains a timeless beacon of early Christian unity and resilience."
36.2753,7.9603,Saint Monica,https://en.wikipedia.org/wiki/Saint_Monica,"In Souk Ahras, Algeria, Saint Monica is honored for her unwavering patience and maternal devotion. Her life of persistent prayer and steadfast love continues to resonate with believers across generations."
36.7372,3.0863,Saint Augustine of Hippo,https://en.wikipedia.org/wiki/Augustine_of_Hippo,"In Algiers, the intellectual and spiritual legacy of Saint Augustine of Hippo is interwoven with local history. His teachings and reputed miracles continue to resonate with seekers of truth."
36.8065,10.1815,Saint Louis of Toulouse,https://en.wikipedia.org/wiki/Saint_Louis_of_Toulouse,"In Tunis, local lore celebrates Saint Louis of Toulouse for his compassion and acts of charity. His gentle miracles have been recounted in families for generations."
37.0755,15.2866,Saint Lucy,https://en.wikipedia.org/wiki/Saint_Lucy,"In Syracuse, Sicily, Saint Lucy is venerated as the patron of the blind and martyrs. Her courageous martyrdom and legendary miracles continue to be celebrated with annual festivals in her honor."
37.1574,38.8513,Saint Ephrem the Syrian,https://en.wikipedia.org/wiki/Ephrem_the_Syrian,"In the ancient region near Edessa, Saint Ephrem the Syrian was revered for his poetic hymns and profound theological insight. His legacy of spiritual creativity continues to influence Eastern Christian traditions."
37.1773,-3.5986,Saint John of God,https://en.wikipedia.org/wiki/Saint_John_of_God,"In Granada, Spain, the compassionate legacy of Saint John of God as a healer and caregiver is vividly remembered. His selfless work in founding hospitals and caring for the poor continues to serve as a model of charity and service."
37.5665,126.9780,Saint Andrew Kim Taegon,https://en.wikipedia.org/wiki/Saint_Andrew_Kim_Taegon,"Seoul’s modern skyline contrasts with the ancient legends of Saint Andrew Kim Taegon, whose missionary work laid foundations for Korean Catholicism. His legacy is celebrated in churches and community events throughout the city."
37.9838,23.7275,Saint Dionysius,https://en.wikipedia.org/wiki/Saint_Dionysius_the_Areopagite,"In Athens, legends recount the conversion of the Areopagite, Saint Dionysius, who became a symbol of faith in ancient Greece. His transformative journey from skeptic to saint continues to inspire seekers of truth."
38.4237,27.1428,Saint Polycarp,https://en.wikipedia.org/wiki/Saint_Polycarp,"In Izmir (ancient Smyrna, Turkey), Saint Polycarp is remembered as an early martyr of steadfast conviction. His courageous witness under persecution inspires faith across centuries."
38.4237,27.1428,Saint Polycarp,https://en.wikipedia.org/wiki/Saint_Polycarp,"In the historic city of Smyrna (modern-day Izmir, Turkey), Saint Polycarp’s martyrdom is commemorated as a landmark of early Christian courage. His unwavering witness in the face of persecution remains a beacon of faith and resilience."
38.7223,-9.1393,Saint Anthony of Padua,https://en.wikipedia.org/wiki/Saint_Anthony_of_Padua,"In Lisbon, devotees celebrate Saint Anthony’s reputed miracles and compassionate intercession. His legacy endures in the heartfelt prayers and vibrant processions of Portugal."
38.9108,16.5913,Saint Emygdius,https://en.wikipedia.org/wiki/Emygdius,"In the rugged landscapes of Calabria, Saint Emygdius is celebrated for his miraculous interventions during natural disasters. His enduring legacy of resilience and divine protection continues to inspire local communities in times of hardship."
39.2900,-76.6100,Saint Elizabeth Ann Seton,https://en.wikipedia.org/wiki/Elizabeth_Ann_Seton,"In Baltimore, Saint Elizabeth Ann Seton founded the first Catholic school in America, pioneering religious education in a young nation. Her compassionate outreach and enduring legacy continue to inspire charitable works across the United States."
39.9042,116.4074,Saint Francis Xavier,https://en.wikipedia.org/wiki/Saint_Francis_Xavier,"In Beijing, echoes of Saint Francis Xavier’s missionary work resonate among the few historic Christian communities. His legacy of perseverance continues to kindle faith in unlikely places."
4.7110,-74.0721,Saint Laura Montoya,https://en.wikipedia.org/wiki/Laura_Montoya,"In Bogotá, the legacy of Saint Laura Montoya is remembered for her tireless work among indigenous communities. Her compassionate outreach and enduring spirit continue to uplift the local faithful."
40.4168,-3.7038,Saint Isidore the Laborer,https://en.wikipedia.org/wiki/Saint_Isidore_the_Laborer,"In Madrid, Spain, Saint Isidore the Laborer is venerated as the patron saint of farmers and rural communities. His humble life and reputed miracles in aiding agricultural endeavors serve as a lasting symbol of hope and perseverance."
40.6300,22.9444,Saint Spyridon,https://en.wikipedia.org/wiki/Saint_Spyridon,"On a small Greek island, Saint Spyridon’s reputed healing miracles have become the stuff of local legend. His humble life and steadfast faith continue to be honored by pilgrims."
40.6565,-4.7006,Saint Teresa of Avila,https://en.wikipedia.org/wiki/Saint_Teresa_of_Avila,"In Avila, Saint Teresa underwent profound mystical experiences that reshaped her spiritual outlook. Her revelations and reforms contributed significantly to the religious renaissance of her time."
40.6800,14.7681,Saint Matthew,https://en.wikipedia.org/wiki/Saint_Matthew,"In Salerno, Italy, Saint Matthew the Apostle is venerated as one of the Evangelists and the traditional author of a Gospel. His enduring influence in Christian art and literature celebrates his commitment to spreading the teachings of Christ."
40.8518,14.2681,Saint Gerard Majella,https://en.wikipedia.org/wiki/Saint_Gerard_Majella,"In Naples, the legacy of Saint Gerard Majella is celebrated through his role as a patron of expectant mothers and those facing hardship. His compassionate intercession and reputed healings have fostered enduring local devotion."
41.0082,28.9784,Saint John Chrysostom,https://en.wikipedia.org/wiki/John_Chrysostom,"In Istanbul—formerly Constantinople—the legacy of Saint John Chrysostom endures through his eloquent sermons and reformative leadership in the early Church. His profound theological writings and literary brilliance continue to influence Christian liturgy and pastoral care."
41.1129,14.9100,Saint Benedict of Nursia,https://en.wikipedia.org/wiki/Saint_Benedict,"At Monte Cassino in Italy, Saint Benedict’s rule for monastic life took shape amid serene landscapes. His teachings and miracles laid the groundwork for Western monasticism."
41.1171,16.8719,Saint Nicholas,https://en.wikipedia.org/wiki/Saint_Nicholas,"In Bari, Italy, the relics of Saint Nicholas are enshrined in a grand basilica, drawing pilgrims from around the world. His legacy of generosity and mystery has inspired traditions of gift-giving and enduring veneration."
41.1171,16.8719,Saint Nicholas,https://en.wikipedia.org/wiki/Saint_Nicholas,"The relics of Saint Nicholas were brought to Bari, transforming the city into a renowned pilgrimage destination. His legacy of generosity and miraculous deeds continues to captivate believers and travelers alike."
41.2000,13.6000,Saint Thomas Aquinas,https://en.wikipedia.org/wiki/Saint_Thomas_Aquinas,"In the historic landscapes of Italy, Saint Thomas Aquinas is revered as a towering figure in scholastic theology and philosophy. His synthesis of faith and reason remains a cornerstone of Catholic intellectual tradition and continues to influence modern thought."
41.2675,13.1157,Saint Scholastica,https://en.wikipedia.org/wiki/Saint_Scholastica,"In the serene hills near Subiaco, Italy, Saint Scholastica is celebrated for her deep spiritual friendship with Saint Benedict and her commitment to a life of contemplative prayer. Her legacy of sisterly love and devotion has nurtured monastic traditions across Europe."
41.3851,2.1734,Saint Eulalia of Barcelona,https://en.wikipedia.org/wiki/Eulalia_of_Barcelona,"In Barcelona, the young martyr Saint Eulalia is celebrated for her unwavering faith amid persecution. Her courageous sacrifice remains a cherished symbol of devotion in Catalonia."
41.4920,13.1244,Saint Romuald,https://en.wikipedia.org/wiki/Saint_Romuald,"Near Monte Cassino, Italy, Saint Romuald is remembered for his ascetic life and founding of the Camaldolese order. His teachings on monastic discipline and contemplative prayer have influenced generations of spiritual seekers."
41.9028,12.4964,Saint Agnes of Rome,https://en.wikipedia.org/wiki/Saint_Agnes_of_Rome,"In ancient Rome, Saint Agnes became a symbol of purity and unwavering faith amid persecution. Her steadfast devotion and martyrdom continue to inspire generations of believers."
41.9028,12.4964,Saint Gregory the Great,https://en.wikipedia.org/wiki/Pope_Gregory_I,"In Rome, Saint Gregory the Great’s profound contributions to liturgy and ecclesiastical structure resonate through centuries of Church tradition. His visionary leadership and pastoral care have left an indelible mark on Christian history."
41.9028,12.4964,Saint Lawrence,https://en.wikipedia.org/wiki/Saint_Lawrence,"In Rome, Saint Lawrence is remembered for his compassionate service to the poor and his dramatic martyrdom during a period of Roman persecution. His legacy endures as a symbol of charity and bravery throughout the centuries."
41.9028,12.4964,Saint Luke,https://en.wikipedia.org/wiki/Saint_Luke,"In Rome, traditions honor Saint Luke as the beloved evangelist and author of the Gospel of Luke. His narrative legacy—bridging art, medicine, and faith—continues to inspire artists and healers alike."
41.9028,12.4964,Saint Paul,https://en.wikipedia.org/wiki/Paul_the_Apostle,"In Rome, the Basilica of Saint Paul Outside the Walls stands as a monument to his missionary zeal and enduring influence on Christianity. His epistles and teachings continue to shape Christian thought across the centuries."
41.9028,12.4964,Saint Sylvester,https://en.wikipedia.org/wiki/Saint_Sylvester_I,"In Rome, Saint Sylvester I is remembered as a pontiff steeped in legend whose reign is linked with miraculous events. His feast is celebrated with processions and traditions that evoke the deep historical roots of the Church."
41.9028,12.4964,Saint Valentine,https://en.wikipedia.org/wiki/Saint_Valentine,"In Rome, Saint Valentine is venerated as the patron saint of lovers, renowned for his secret marriages and compassionate defiance of unjust edicts. His enduring legacy is celebrated each February as a symbol of love and heartfelt devotion."
42.1333,23.5500,Saint John of Rila,https://en.wikipedia.org/wiki/Saint_John_of_Rila,"In the Rila Mountains of Bulgaria, Saint John of Rila’s humble life is remembered with heartfelt devotion. His miraculous acts and wise counsel continue to guide the faithful."
42.4057,-3.3562,Saint Dominic,https://en.wikipedia.org/wiki/Saint_Dominic,"Born in Caleruega, Spain, Saint Dominic founded the Dominican Order with a vision to combat heresy. His legacy of scholarship and preaching continues to influence the Church worldwide."
42.8782,-8.5440,Saint James the Greater,https://en.wikipedia.org/wiki/Saint_James_the_Greater,"In Santiago de Compostela, Spain, the pilgrimage route leads devotees to the revered shrine of Saint James the Greater. His legendary journeys and miraculous intercessions have made his legacy a cornerstone of spiritual quests and cultural tradition."
42.8800,-8.5450,Saint James the Greater,https://en.wikipedia.org/wiki/Saint_James_the_Greater,"Pilgrims from across Spain walk the Camino to Santiago de Compostela, where Saint James is said to have performed miracles. His legendary journey inspires faith and devotion along the ancient route."
42.9438,13.5091,Saint Rita of Cascia,https://en.wikipedia.org/wiki/Saint_Rita_of_Cascia,"In Cascia, Italy, Saint Rita is venerated as a model of perseverance and compassion, known for her miraculous intercessions in seemingly impossible situations. Her life of deep suffering and eventual sanctity continues to inspire devotees around the world."
43.0700,12.6191,Saint Francis of Assisi,https://en.wikipedia.org/wiki/Saint_Francis_of_Assisi,"In Assisi, Italy, Saint Francis embraced a life of radical poverty and deep reverence for nature. His joyful humility and love for all creation continue to inspire countless believers around the world."
43.0700,12.6191,Saint Francis of Assisi,https://en.wikipedia.org/wiki/Saint_Francis_of_Assisi,"In Assisi, Saint Francis experienced a profound spiritual awakening that led him to embrace a life of poverty and piety. His transformative journey in this historic town inspired the founding of the Franciscan Order and left an indelible mark on religious history."
43.1000,-75.3000,Saint Kateri Tekakwitha,https://en.wikipedia.org/wiki/Kateri_Tekakwitha,"Known as the 'Lily of the Mohawks,' Saint Kateri Tekakwitha embraced Catholicism at a young age amidst cultural challenges. Her steadfast faith and gentle spirit continue to inspire Native American and global Catholic communities."
43.1800,-2.9300,Saint Ignatius of Loyola,https://en.wikipedia.org/wiki/Ignatius_of_Loyola,"In Azpeitia, Spain, Saint Ignatius of Loyola’s early life set the stage for his profound spiritual conversion and the founding of the Society of Jesus. His journey from a warrior to a dedicated spiritual leader continues to inspire global education and missionary work."
43.5081,16.4402,Saint Jerome,https://en.wikipedia.org/wiki/Saint_Jerome,"Along the Dalmatian coast of Croatia, Saint Jerome’s scholarly and ascetic life is recalled in local lore. His translation of sacred texts has left a lasting legacy in the region."
43.6047,1.4442,Saint Louis,https://en.wikipedia.org/wiki/Saint_Louis_of_Toulouse,"In Toulouse, Saint Louis of Toulouse is celebrated for renouncing wealth to serve the poor with profound humility. His compassionate legacy and reformative spirit have left an enduring mark on the region's religious history."
43.7696,11.2558,Saint Eustace,https://en.wikipedia.org/wiki/Saint_Eustace,"Legend recounts that while hunting, Saint Eustace witnessed a vision of a burning stag with a crucifix between its antlers, prompting a profound conversion. His story symbolizes the transformative power of faith amidst worldly pursuits."
43.8422,10.5048,Saint Zita,https://en.wikipedia.org/wiki/Saint_Zita,"In Lucca, Italy, Saint Zita is venerated as the patron saint of domestic servants and an exemplar of humble virtue. Her life of selfless service and quiet piety continues to inspire acts of kindness and dedication in communities around the world."
43.8430,10.5050,Saint Gemma Galgani,https://en.wikipedia.org/wiki/Gemma_Galgani,"In the serene Tuscan countryside near Lucca, Saint Gemma Galgani’s mystical experiences and profound compassion have touched countless lives. Her life of deep spirituality and miraculous visions continues to inspire devotion among believers."
44.2220,12.0400,Saint Peregrine Laziosi,https://en.wikipedia.org/wiki/Saint_Peregrine_Laziosi,"In Forlì, Italy, the legacy of Saint Peregrine Laziosi is celebrated for his miraculous healing and compassionate intercession. Revered as the patron saint of cancer patients, his life story offers hope and solace to many who seek divine comfort."
44.7866,20.4489,Saint Sava,https://en.wikipedia.org/wiki/Saint_Sava,"In Belgrade, Serbia, Saint Sava is revered as a foundational figure in the establishment of the Serbian Orthodox Church. His contributions to education, law, and faith continue to be celebrated as pillars of national pride and spiritual heritage."
44.7866,20.4489,Saint Sava,https://en.wikipedia.org/wiki/Saint_Sava,"In Belgrade, the story of Saint Sava is integral to Serbian cultural and spiritual identity. His dedication to education and faith is celebrated in both churches and public commemorations."
45.1564,10.7917,Saint Aloysius Gonzaga,https://en.wikipedia.org/wiki/Aloysius_Gonzaga,"In the Renaissance heartland of Italy, Saint Aloysius Gonzaga exemplified piety and youthful dedication to service. His compassionate spirit and personal sacrifices continue to be revered as a model of virtuous living."
45.3234,8.4231,Saint Eusebius of Vercelli,https://en.wikipedia.org/wiki/Saint_Eusebius_of_Vercelli,"In the historic town of Vercelli, Saint Eusebius stood as a steadfast guardian of orthodox faith during turbulent times. His scholarly contributions and leadership are still celebrated in Northern Italy."
45.4347,12.3387,Saint Mark,https://en.wikipedia.org/wiki/Saint_Mark,"In Venice, Italy, Saint Mark the Evangelist is revered as the patron saint of the city, with his symbol famously emblazoned on the Basilica di San Marco. His contributions to the early Church and his lasting iconography continue to shape Venetian cultural identity."
45.4408,12.3155,Saint Roch,https://en.wikipedia.org/wiki/Saint_Roch,"In Venice, Italy, Saint Roch is honored for his reputed healing miracles and steadfast protection during times of plague. His legacy as a patron of the afflicted has provided hope and solace to countless communities over the centuries."
45.4642,9.1900,Saint Ambrose of Milan,https://en.wikipedia.org/wiki/Ambrose_of_Milan,"In the heart of Milan, Saint Ambrose’s eloquent sermons and theological insights transformed the local church. His legacy endures as a pillar of wisdom and spiritual courage in Italy."
45.4642,9.1900,Saint Raphael,https://en.wikipedia.org/wiki/Saint_Raphael_the_Archangel,"In Milan, Italy, Saint Raphael is revered not only as an archangel but also as a patron of travelers and healers. His intercessory miracles and guiding presence continue to offer hope and protection to those in need."
45.7640,4.8357,Saint Irenaeus of Lyon,https://en.wikipedia.org/wiki/Irenaeus,"In Lyon, France, Saint Irenaeus is celebrated for his courageous defense of orthodox Christianity against heretical teachings. His insightful theological writings and unwavering commitment to truth continue to shape Christian thought."
45.9432,24.9668,Parascheva of the Balkans,https://en.wikipedia.org/wiki/Parascheva_of_the_Balkans,"In a small town in Romania, the local veneration of Saint Parascheva reflects deep-rooted spiritual traditions. Her reputed miracles and gentle nature have made her a beloved figure."
46.2044,6.1432,Saint Francis de Sales,https://en.wikipedia.org/wiki/Saint_Francis_de_Sales,"In Geneva, Saint Francis de Sales is remembered for his gentle, persuasive approach to spiritual reform. His eloquent writings and compassionate guidance continue to influence the faithful and inspire modern spirituality."
47.0105,28.8638,Saint Nicholas,https://en.wikipedia.org/wiki/Saint_Nicholas,"In Chişinău, a local tradition reveres Saint Nicholas as a bringer of hope and generosity. His legendary interventions are celebrated annually among the faithful."
47.3941,0.6848,Saint Martin of Tours,https://en.wikipedia.org/wiki/Saint_Martin_of_Tours,"In Tours, France, Saint Martin of Tours is celebrated for his compassionate act of sharing his cloak with a beggar. His legacy of humility and charity has inspired countless acts of kindness throughout the ages."
47.4167,9.5500,Saint Gall,https://en.wikipedia.org/wiki/Saint_Gall,"In St. Gallen, Switzerland, Saint Gall’s monastic legacy is preserved through centuries-old abbeys. His life and miracles have shaped the spiritual character of the region."
47.4979,19.0402,Saint Stephen,https://en.wikipedia.org/wiki/Saint_Stephen,"In Budapest, Saint Stephen’s legacy is celebrated as the founding father of Hungarian statehood. His story of leadership and sacrifice continues to resonate among believers."
48.5760,1.0900,Saint Joan of Arc,https://en.wikipedia.org/wiki/Joan_of_Arc,"In the heart of France, Saint Joan of Arc emerged as a symbol of courage during turbulent times. Her miraculous victories and steadfast faith rallied her countrymen to defend their land."
48.7500,11.2000,Saint Walpurga,https://en.wikipedia.org/wiki/Saint_Walpurga,"In Eichstätt, Germany, Saint Walpurga is honored for her miraculous healing and her role as a model of monastic devotion. Her legacy is celebrated through local traditions that emphasize her intercessory power and commitment to the sick and needy."
48.8566,2.3522,Saint Vincent de Paul,https://en.wikipedia.org/wiki/Saint_Vincent_de_Paul,"In Paris, Saint Vincent de Paul is remembered for his profound charitable works and transformative care for the poor. His compassionate initiatives and reforms continue to inspire acts of social justice and mercy around the world."
49.1500,0.3000,Saint Therese of Lisieux,https://en.wikipedia.org/wiki/Saint_Therese_of_Lisieux,"In Lisieux, France, Saint Therese of Lisieux—affectionately known as 'The Little Flower'—is celebrated for her simple yet profound approach to spirituality. Her 'little way' of love and trust in God continues to touch hearts and inspire believers worldwide."
49.2667,2.7167,Saint Norbert,https://en.wikipedia.org/wiki/Saint_Norbert,"In Prémontré, France, Saint Norbert founded the Norbertine Order, ushering in a new era of monastic discipline and reform. His visionary leadership and commitment to ecclesiastical renewal continue to influence religious communities today."
49.4430,1.0993,Saint Ouen,https://en.wikipedia.org/wiki/Saint_Ouen,"In Rouen, France, Saint Ouen is celebrated for his pivotal role in early medieval pastoral care and church building. His enduring influence is reflected in the historic basilica that bears his name and in local traditions that honor his legacy."
49.8833,19.7833,John Paul II,https://en.wikipedia.org/wiki/John_Paul_II,"In Wadowice, Poland, the early life of John Paul II is interwoven with stories of deep spirituality and courage. His journey from a humble town to the papacy continues to inspire millions worldwide."
49.9800,7.9800,Saint Hildegard of Bingen,https://en.wikipedia.org/wiki/Hildegard_of_Bingen,"In the town of Bingen am Rhein, Saint Hildegard of Bingen left an indelible mark with her visionary writings, music, and scientific insights. Her creative genius and mystical experiences continue to inspire scholars and spiritual seekers alike."
50.0647,19.9450,Saint Faustina Kowalska,https://en.wikipedia.org/wiki/Faustina_Kowalska,"In Kraków, Poland, Saint Faustina is celebrated for her mystical experiences and profound devotion to Divine Mercy. Her sacred diary and enduring intercessions have inspired a global devotion to God's mercy."
50.0647,19.9450,Saint Stanislaus,https://en.wikipedia.org/wiki/Saint_Stanislaus_of_Szczepan%C3%B3w,"In Kraków, Poland, Saint Stanislaus is honored for his courageous martyrdom and steadfast defense of the Church against tyranny. His noble sacrifice and enduring legacy are celebrated through festivals and artistic tributes throughout the nation."
50.0755,14.4378,Saint Vitus,https://en.wikipedia.org/wiki/Saint_Vitus,"In Prague, Saint Vitus is venerated as a protector against misfortune and a patron of dancers, with legends attributing miraculous healings to his intercession. His iconic legacy is celebrated in local traditions and historical architecture, linking his story to the cultural heritage of the city."
50.4501,30.5234,Saint Olga,https://en.wikipedia.org/wiki/Saint_Olga,"Kyiv’s ancient cathedrals recount the legendary deeds of Saint Olga of Kiev. Her compassionate reforms and steadfast faith have long inspired the Eastern Orthodox tradition."
50.4750,-4.7200,Saint Neot,https://en.wikipedia.org/wiki/Saint_Neot,"In Cornwall, the veneration of Saint Neot is interwoven with local folklore and centuries-old traditions. His life, marked by reputed miracles and humble devotion, remains a cherished part of the region’s cultural heritage."
50.5600,9.6800,Saint Boniface,https://en.wikipedia.org/wiki/Saint_Boniface,"In central Germany, Saint Boniface’s mission helped to reshape the local religious landscape through preaching and reform. His bold efforts earned him the title ‘Apostle of the Germans’ and left a lasting legacy in the region."
50.6333,3.0667,Saint Eligius,https://en.wikipedia.org/wiki/Saint_Eligius,"In the artisan towns of northern France, Saint Eligius is revered as the patron of metalworkers and coin minters. His legacy of craftsmanship, integrity, and charity endures in local traditions and guild histories."
50.6333,5.5667,Saint Hubert,https://en.wikipedia.org/wiki/Saint_Hubert,"In Liège, the legacy of Saint Hubert—the patron saint of hunters—is celebrated with traditions that honor his conversion and piety. His life story, marked by a dramatic encounter with a stag, inspires reverence for nature and the transformative power of faith."
50.8514,5.6900,Saint Lambert,https://en.wikipedia.org/wiki/Saint_Lambert,"In Maastricht, Saint Lambert is celebrated for his pious leadership and the miraculous deeds attributed to him. His enduring influence is remembered in local legends and annual processions throughout the region."
50.9375,6.9603,Saint Ursula,https://en.wikipedia.org/wiki/Saint_Ursula,"In Cologne, Germany, the legend of Saint Ursula and her 11000 virgins has been immortalized in art and local lore. Her courageous journey of faith and martyrdom continues to inspire devotion and serves as a symbol of purity and endurance across Europe."
51.0000,5.4000,Saint Dymphna,https://en.wikipedia.org/wiki/Saint_Dymphna,"In the quiet town of Gheel, Belgium, the legacy of Saint Dymphna offers solace to those struggling with mental illness. Her compassionate intercession has made her a patron of mental health and healing."
51.1079,17.0385,Saint Hedwig of Silesia,https://en.wikipedia.org/wiki/Saint_Hedwig_of_Silesia,"In Wrocław, Saint Hedwig is remembered as a compassionate ruler and protector of the impoverished. Her benevolent deeds and steadfast faith continue to foster deep respect and enduring devotion throughout Central Europe."
51.2790,-1.0770,Saint Augustine of Canterbury,https://en.wikipedia.org/wiki/Augustine_of_Canterbury,"Upon arriving in Canterbury, Saint Augustine established the roots of Christianity in England. His mission in this ancient town heralded the dawn of a new religious era."
51.4816,-3.1791,Saint David,https://en.wikipedia.org/wiki/Saint_David,"In Wales, the legacy of Saint David is celebrated each year with festivals and processions. His life of humble devotion has made him the patron saint of the Welsh people."
51.4839,-0.6044,Saint George,https://en.wikipedia.org/wiki/Saint_George,"At Windsor Castle, the veneration of Saint George is celebrated with annual festivities honoring his legendary triumph over evil. His emblematic valor and enduring legacy have made him a revered symbol of chivalry and national pride."
51.5175,-0.1085,Saint Giles,https://en.wikipedia.org/wiki/Saint_Giles,"In the heart of London, the legacy of Saint Giles is preserved by the ancient church bearing his name. His life of asceticism, healing, and local folklore continues to offer solace and refuge to those in need."
51.8810,-5.2675,Saint David,https://en.wikipedia.org/wiki/Saint_David,"In the small Welsh town of St Davids, Saint David’s life and miracles have inspired generations of faithful. His unwavering commitment to holiness and community is celebrated annually in local festivals."
52.0907,5.1214,Saint Ansgar,https://en.wikipedia.org/wiki/Saint_Ansgar,"Copenhagen remembers Saint Ansgar as the ‘Apostle of the North’ for his missionary work. His legacy of spreading the Gospel in Scandinavia continues to be honored in church celebrations."
52.0907,5.1214,Saint Willibrord,https://en.wikipedia.org/wiki/Saint_Willibrord,"In Utrecht, the mission of Saint Willibrord is remembered as a key moment in the Christianization of the Netherlands. His legacy endures in annual pilgrimages and local festivities."
53.0037,-6.3705,Saint Kevin,https://en.wikipedia.org/wiki/Saint_Kevin,"In the tranquil monastic setting of Glendalough, Saint Kevin founded a community dedicated to solitude and prayer. His deep connection with nature and humble way of life have made him a beloved figure in Irish spiritual tradition."
53.0726,3.0134,Saint Winifred,https://en.wikipedia.org/wiki/Saint_Winifred,"In Holywell, Wales, Saint Winifred is venerated for her legendary healing miracles and the sacred well named in her honor. Her story of martyrdom and subsequent miracles continues to inspire pilgrimage and local devotion throughout the region."
53.2345,-0.5380,Saint Hugh of Lincoln,https://en.wikipedia.org/wiki/Hugh_of_Lincoln,"In Lincoln, England, Saint Hugh of Lincoln is honored for his dedicated service to the Church and his advocacy for the poor. His leadership, marked by humility and justice, remains a model of Christian charity to this day."
54.6872,25.2797,Saint Casimir,https://en.wikipedia.org/wiki/Saint_Casimir,"In Vilnius, Saint Casimir’s youthful piety and courage are celebrated in local lore. His intercessory miracles continue to be a source of hope for many in Lithuania."
54.7214,-4.3011,Saint Ninian,https://en.wikipedia.org/wiki/Saint_Ninian,"In Whithorn, Scotland, Saint Ninian is celebrated as one of the earliest Christian missionaries whose work helped lay the foundation for Christianity in the region. His pioneering efforts and enduring influence continue to be honored by local communities and scholars alike."
55.6761,12.5683,Saint Ansgar,https://en.wikipedia.org/wiki/Saint_Ansgar,"Copenhagen remembers Saint Ansgar as the ‘Apostle of the North’ for his missionary work. His legacy of spreading the Gospel in Scandinavia continues to be honored in church celebrations."
55.9533,-3.1883,Saint Margaret of Scotland,https://en.wikipedia.org/wiki/Saint_Margaret_of_Scotland,"Edinburgh’s ancient churches recall the compassionate deeds of Saint Margaret. Her life of service and martyrdom has inspired countless acts of charity in Scotland."
56.1670,38.2110,Saint Sergius of Radonezh,https://en.wikipedia.org/wiki/Saint_Sergius_of_Radonezh,"In Sergiev Posad, near Moscow, the veneration of Saint Sergius of Radonezh unites communities through his legacy of piety. His life and miracles are celebrated in both art and liturgy across Russia."
56.4907,-4.2026,Saint Andrew,https://en.wikipedia.org/wiki/Saint_Andrew,"In Scotland, Saint Andrew is revered as a symbol of national identity and faith. His legendary protection is celebrated through local customs and annual festivities."
59.3293,18.0686,Saint Eskil,https://en.wikipedia.org/wiki/Saint_Eskil,"In Stockholm, the quiet legends of Saint Eskil speak of a life dedicated to prayer and service. His modest miracles have left a gentle imprint on Swedish Christian heritage."
59.4370,24.7536,Saint Canute,https://en.wikipedia.org/wiki/Saint_Canute,"Tallinn’s winding streets are said to have witnessed the miraculous deeds of Saint Canute. His story endures as a symbol of faith amidst the region’s turbulent history."
59.9343,30.3351,Saint Xenia of Saint Petersburg,https://en.wikipedia.org/wiki/Xenia_of_Saint_Petersburg,"In Saint Petersburg, Russia, Saint Xenia is venerated as a holy fool whose ascetic lifestyle and mysterious intercessions have become legendary. Her life of radical humility and prophetic insight continues to inspire spiritual seekers in the quest for simplicity and divine grace."
6.6111,20.9394,Saint Maurice,https://en.wikipedia.org/wiki/Saint_Maurice,"In Bangui, local believers honor Saint Maurice as a unifying symbol of courage and faith. His reputed miracles continue to offer solace in challenging times."
63.4305,10.3951,Saint Olaf,https://en.wikipedia.org/wiki/Saint_Olaf,"In Trondheim, Norway, Saint Olaf's legacy as a warrior king and martyr is enshrined in the revered Nidaros Cathedral. His veneration has become a cornerstone of Norwegian identity, inspiring both deep faith and national pride."
64.1466,-21.9426,Saint Thorlak,https://en.wikipedia.org/wiki/Saint_Thorlak,"In Reykjavik, Saint Thorlak is celebrated as a protector against nature’s harshest elements. His legacy is enshrined in local festivals and quiet prayers during the long winters."
8.5241,76.9366,Saint Thomas the Apostle,https://en.wikipedia.org/wiki/Thomas_the_Apostle,"In Kerala, the ancient traditions claim that Saint Thomas the Apostle brought Christianity to India through miraculous acts. His enduring influence is celebrated in churches and local lore alike."
8.8932,76.6142,Saint Kuriakose Elias Chavara,https://en.wikipedia.org/wiki/Kuriakose_Elias_Chavara,"In the lush landscapes of Kerala, India, Saint Kuriakose Elias Chavara is celebrated for his pioneering work in education and social reform. His efforts in founding congregations and schools have left a lasting impact on the Christian community in the region."
9.1450,40.4897,Saint Gebre Menfes Kidus,https://en.wikipedia.org/wiki/Gebre_Menfes_Kidus,"In Addis Ababa, legends of Saint Gebre Menfes Kidus remind locals of his deep compassion and healing miracles. His story is passed down in both oral tradition and sacred art in Ethiopia."
51.99610346131327, -0.9964376400894895,Saint Rumbold,https://en.wikipedia.org/wiki/Rumbold_of_Buckingham,Saint Rumwold (Rumbold) was a medieval infant saint from 662 AD, famed for his miraculous piety—speaking of Christianity and requesting baptism shortly after birth. His legend, steeped in royal lineage and miraculous events, inspired several dedications, with churches and relics commemorating his brief, holy life.
52.34485725380781, 1.2035462152573537,Edmund the Martyr,https://en.wikipedia.org/wiki/Edmund_the_Martyr,Edmund the Martyr was a 9th-century king of East Anglia who was killed during a Viking invasion, supposedly at the site of this cross. After his death, he was canonised and widely venerated in medieval England.
