latitude,longitude,label,link
51.84969447533564, -3.1449943020907436,The Tale of Richard the Tailor and the Mysterious Hare,http://antiq.wiki/?s8-l5057,A hunting party chases a hare that mysteriously vanishes at the inn of Richard the Tailor, suspected of using magical tricks to lure them into staying. Walter Jones, one of the hunters, experiences a supernatural ordeal that leads him to reform his ways after returning to the inn disheveled and disoriented.
58.71, 11.42,The Musicians of Gärun Hill,http://antiq.wiki/?s1-l4281,In Tanum, near Gärun, locals once reported sounds of musicians emanating from a hill, where fiddlers could gain extraordinary skills if they promised salvation. Alternatively, failing to make this promise led to the heartbreaking sound of violins being broken within the hill.
54.47352671846722, 13.38511292378374,The Lost Bell,http://antiq.wiki/?s1-l8585,A shepherd's boy named Fritz Schlagenteufel finds a silver bell belonging to a creature from the underground people and eventually exchanges it for a magical shepherd's staff offered by the creature in disguise. The staff brings prosperity to Fritz, who rises from being a shepherd to becoming a wealthy landowner, securing his family's prosperity.
52.47275846694445, -8.828458632907399,The Legend of Knockfierna,http://antiq.wiki/?s2-l385,Carroll O'Daly, known for his fearless and skeptic attitude towards fairies, encounters a mysterious farmer while traveling near Knockfierna, a mountain believed to be home to these mystical beings. Driven by curiosity, Carroll follows the farmer to the mountain top, only to have a stone hurled back at him, leading to his disfigurement and newfound caution around fairy lands at night.
52.167282441628785, -8.221136895293983,The Confessions of Tom Bourke,http://antiq.wiki/?s2-l1373,Tom Bourke, a wealthy farmer living between Kilworth and Lismore, holds a unique supernatural gift allowing him to communicate with fairies, known as the 'good people,' which he uses to heal others occasionally. Despite his shrewd business acumen and love for money, Tom values this otherworldly ability highly and uses it with discretion, sharing tales of these mystical interventions only in the right company.
