latitude,longitude,label,link
52.79621625604078, 1.2510057615591164, Church of St. Michael, https://en.wikipedia.org/wiki/Church_of_St_Michael,_Aylsham
55.50414326349397, -4.612507815527504, St Nicolas' Church, https://ayrshiremagazine.com/the-history-of-prestwick/, A stone mortsafe held in place by metal bands.
51.78861740401277, 0.9723813485539557, Grave of Sarah Wrench at St Edmunds, https://www.findagrave.com/memorial/122574549/sarah-wrench, For Sarah's protection, an iron grill was fitted over the grave, including a metal memorial plate.
55.31793332593432, -2.0725954548636274, Holystone Church, https://georgianera.wordpress.com/tag/mortsafe, A simple iron cage over a decoratve stone grave-slab.
52.47331853702929, -2.079129824212467, Cradley Heath Churchyard, https://anarrativenotbasedonfact.wordpress.com/mortsafes, Three mortsafes for Ruth Troman, William Richards and Ephraim Weston. 
52.38512607480823, -2.325431542439712, A old delicate iron mortsafe among the trees, https://anarrativenotbasedonfact.wordpress.com/mortsafes
51.17295601671815, -2.132617153524576, St Leonard's Church, https://weird-wiltshire.co.uk/2025/12/15/bringing-out-the-dead-in-sutton-veny, A decorative shaped mortsafe set into a stone slab.
57.203718954664325, -2.9293703429417928, Towie Kirkyard, https://www.exploringgb.co.uk/blog/mortsafe-18th-century-invention-to-protect-graves
56.10046282982704, -4.636618596323523, Luss Parish Church, https://georgianera.wordpress.com/tag/mortsafe/
55.427873028826205, -4.637554126568027, Alloway Auld Kirk, https://commons.wikimedia.org/wiki/File:Mort-Safe_In_Alloway_Auld_Kirk_-_geograph.org.uk_-_1213375.jpg , Mortsafe (double iron grille) preserved in a lychgate display
55.921111,-2.79, Bolton Parish Church, https://georgianera.wordpress.com/2016/10/13/guest-blog-by-suzie-lennox-sites-to-be-seen
57.11316340650534, -2.155508898571912, Banchory-Devenick Graveyard, https://wellcomecollection.org/works/wsd4phe6
55.90880347102044, -3.25616192563801, Colinton Parish Church, https://commons.wikimedia.org/wiki/File:Colinton_Mortsafe_-_geograph.org.uk_-_347206.jpg
57.468970990029824, -3.229319880389722, Aberlour Churchyard, https://georgianera.wordpress.com/tag/mortsafe/
56.64853134559463, -3.6847940152520025, Logierait Kirkyard, https://graveyardsofscotland.com/2024/07/01/keeping-corpses-safe/, A number of sturdy iron cages protecting the graves below.
56.174270917083184, -4.388224557691485, Old Aberfoyle Kirkyard, https://www.exploringgb.co.uk/blog/mortsafe-18th-century-invention-to-protect-graves
