latitude,longitude,label,link
51.966043120141514, -3.9011069717544653,The Weaver of Llansadwrn Transported Through the Air by a Spirit,http://antiq.wiki/?s11-l7301,Evan y Gweydd encountered a spirit one night that compelled him to transport an iron chest to Fanfach Lake, and during this supernatural journey, he was carried through the air and later found himself ill for some time. The spirit offered Evan the choice of above, amid, or below wind for his aerial journey, warning that his decision would impact the ease of travel, highlighting the safest option as amid wind.
52.25558253735295, -3.9022824621389502,Spirits Throwing Stones,http://antiq.wiki/?s11-l7353,An old man named John Jones recounted a tale about a farm between Pontrhydfendigaid and Tregaron haunted by a ghost that threw stones, troubling the family residing there. This story is among several similar tales found in various parts of the country, as noted in an old Welsh book.
52.028932577597814, -4.37175488709765,A Story of a Ghost Throwing Stones at Llangeler,http://antiq.wiki/?s11-l7416,In 1719, in the parish of Llangeler, Carmarthenshire, a mysterious spirit began throwing stones at people on a farm, causing injury and fear. Despite many villagers gathering to witness the phenomenon, the ghost continued to pelt stones until the spirit's actions ceased after a community prayer.
52.33882184830767, -3.9582259352950815,A Ghost Revealing Hidden Treasure to a Farmer in the Parish of Llanafan,http://antiq.wiki/?s11-l7544,Farmer Edwards, living near Llanafan Bridge, was troubled by a ghost until he addressed it, apparently leading to the revelation of hidden treasure, which he used to prosper. A local resident confirmed the story's truth, claiming a financial benefit from the treasure as a relative of the farmer.
52.476870277203645, -4.002009760216111,The Glanfread Fawr Ghost Revealing Hidden Money to the Housemaid.,http://antiq.wiki/?s11-l7595,During the Christmas holidays at Glanfread, a housemaid fainted after a mysterious encounter outside while fetching firewood, refusing to explain what had occurred despite her master's threats. Later, she and a fellow servant married and unexpectedly acquired a large farm, leading many to believe a spirit had revealed hidden treasure to her on the fateful night.
52.331283397323226, -3.3892030260841177,A Ghost Appearing to Point Out Hidden Treasure in Radnorshire,http://antiq.wiki/?s11-l7628,In Radnorshire, a young gentleman bravely confronted a ghost haunting a palace near Abbey Cwm Hir, who then revealed hidden treasures buried near the house. Once the young man found and retrieved the valuable treasures as guided by the Spirit, the hauntings at the house ceased.
52.64979274835289, -3.1610991571985836,The Powis Castle Ghost Story,http://antiq.wiki/?s11-l7656,A poor woman who worked as a spinner at the Welsh Earl of Powis's country seat, Redcastle, encountered the ghost of a gentleman, who revealed a hidden box that needed to be sent to the Earl in London. Upon fulfilling the ghost's request, the woman was rewarded by the Earl, receiving lifelong support for her role in the box’s discovery, underlining the prevailing local belief that buried treasures should not be unearthed without the ghost’s consent.
52.09191431471843, -4.280804701228804,The Spirit Encounter at Pontshan,http://antiq.wiki/?s11-l7840,A young Miss Pergrin encountered the spirit of a man from her neighborhood, who was supposedly far away, while walking near Pontshan, Llandyssul. When she informed the man's sisters of the sighting, they dismissed her claim, only for the man to return as expected the following day, confirming her encounter was with his spirit.
51.78913402700515, -4.409626497783276,Spirit of a Living Woman Seen on a Moonlight Night, Near Llanybri in Carmarthenshire,http://antiq.wiki/?s11-l7866,Mrs. M. Davies from Llanybri recalls her mother seeing a spirit of an old woman knitting by the roadside, later identified as Rachel Y Gweydd, on a moonlit night shortly before a local man's funeral. Remarkably, the same woman was seen knitting at the same spot when the funeral procession occurred, confirming the young woman's eerie encounter.
52.279159304619064, -3.9179417922843114,The Visionary Doctor of Swyddffynnon,http://antiq.wiki/?s11-l7903,Mrs. Evans from Cardiganshire had a troubling vision of a tall, dark stranger with a long beard entering her house by the light in an unoccupied chamber. Later, a London doctor fitting this description saved her life during a critical illness, replicating the events of her vision exactly.
51.82379859441075, -4.410934167082315,The Spirit of a Dead Mother Appearing to Her Boy-Son at Llangynog, Carmarthenshire,http://antiq.wiki/?s11-l8021,In Llangynog, Carmarthenshire, a boy named William Thomas was comforted by the spirit of his deceased mother, who reassured him that he need not worry about the future. The spirit asked the boy to stop crying, as his tears caused her pain; this encounter was recounted by the boy's son many years later.
52.04202732329557, -4.3063173050821595,The Spirit of a Dead Daughter Appearing to the Mother,http://antiq.wiki/?s11-l8044,About ninety years ago in Llanfair, Llandyssul, Mrs. D. Thomas's deceased daughter appeared to her, advising her mother not to mourn as she was in a better place. The account of this ghostly appearance was shared by Mr. Rees, who heard it from eyewitnesses three years prior to the retelling.
52.03080781194043, -4.374026421774766,The Spirit Of A Dead Mother Appearing To Her Children,http://antiq.wiki/?s11-l8060,In the parish of Llangeler, Carmarthenshire, the spirit of a deceased mother appeared to her children warning them not to eat poisoned cakes left on their playground. This incident led to neighborhood suspicions that their stepmother had malicious intentions.
51.89626112219923, -3.291156809221675,Allt y Crib Ghost, Near Talybont and Another Tale,http://antiq.wiki/?s11-l8086,The ghost of a baby, whose body was found in an old mine shaft near Talybont, is said to haunt the mother and community with its crying, causing widespread fear. A similar apparition is reported in Troedyraur, South Cardiganshire, where a child ghost dressed in yellow is known as 'Bwci Melyn Bach y Cwm.'
51.739517918640054, -4.305749157551737,The Ghost of Pont-y-Gwendraeth,http://antiq.wiki/?s11-l8104,Nest fell in love with a Norman knight, Sir Walter Mansel, but her cousin's jealousy led to his murder at Pont-y-Gwendraeth, prompting Nest to commit suicide by drowning with him. As a result, Nest's spirit was doomed to haunt the bridge, foretelling the deaths of her descendants unless a descendant married a Mansel, with her ghost reappearing generations later linked to mysterious tragedies in her family.
51.826989591992735, -3.115645249559601,Haunted Mansions of Llanelly,http://antiq.wiki/?s11-l8174,In Llanelly, Old Stradey House is said to be haunted by the ghost of Lady Mansel, while Llanelly House is believed to harbor spirits to this day. An old man recalls that when he was a boy, he heard the sound of a woman's rustling dress in the Stepney Mansion, and claims the same lady played a hidden organ at night.
51.93743746795852, -4.3014787670371195,A Ghost Haunting a Young Lover,http://antiq.wiki/?s11-l8190,William Griffiths, a young servant from Pontiauar in the Parish of Llanpumpsaint, was followed by a ghost in the form of a large man after visiting his lover late at night. Terrified, William was chased to the village of Llanpumpsaint, where he sought refuge at the Blacksmith's shop and collapsed in fear, eventually needing assistance to return home.
51.61097091599564, -4.998696586339831,A Spirit In A Cave,http://antiq.wiki/?s11-l8452,Long ago, an old fiddler entered the Green Bridge Cave with a candle and his fiddle, but the candle went out, leaving him lost inside. It is said that the sound of his fiddle can still be heard in the cave.
52.339894908425386, -4.005692279344268,A Ghost Seen In The Form Of A Calf In Cardiganshire,http://antiq.wiki/?s11-l8820,In Rhosygarth, a notorious haunted area, travelers often encountered a ghost resembling a calf with a dog-like head. Mr. Hughes of Pantyddafad had a supernatural encounter with this ghost, while a young skeptic was similarly spooked, ultimately convincing him of the existence of spirits.
52.235567136825026, -4.191712541807043,The Monachty Ghost Doomed to Cut the Rock Near Llanrhystyd,http://antiq.wiki/?s11-l9219,The Monachty ghost, which terrified residents near Aberaeron due to its reputed ability to pass through a needle's eye, was eventually laid to rest by students from Ystrad Meurig College. These students condemned the ghost to cut a rock near Llanrhystyd, showcasing their reputation for dealing with spirits.
51.626051023845584, -4.901326798034531,The "Laying" of the Stackpole Ghost,http://antiq.wiki/?s11-l9237,The ghost of a headless lady, accompanied by headless horses and a coachman, haunted the area around Stackpole Court. The ghost was eventually laid to rest by a local parson who gave it an impossible task, ensuring it would no longer appear.
